[
  {"name":"ğŸ‡«ğŸ‡· Paris (CDG)","city":"Paris","country":"France","lat":49.0097,"lng":2.5479},
  {"name":"ğŸ‡«ğŸ‡· Paris (ORLY)","city":"Paris","country":"France","lat":48.7233,"lng":2.3794},
  {"name":"ğŸ‡«ğŸ‡· Lyon (LYS)","city":"Lyon","country":"France","lat":45.7256,"lng":4.0814},
  {"name":"ğŸ‡«ğŸ‡· Marseille (MRS)","city":"Marseille","country":"France","lat":43.4393,"lng":5.2219},
  {"name":"ğŸ‡«ğŸ‡· Toulouse (TLS)","city":"Toulouse","country":"France","lat":43.6293,"lng":1.363},
  {"name":"ğŸ‡«ğŸ‡· Nice (NCE)","city":"Nice","country":"France","lat":43.6629,"lng":7.2159},
  {"name":"ğŸ‡«ğŸ‡· Lille (LIL)","city":"Lille","country":"France","lat":50.566,"lng":3.075},
  {"name":"ğŸ‡«ğŸ‡· Bordeaux (BOD)","city":"Bordeaux","country":"France","lat":44.828,"lng":-0.7156},
  {"name":"ğŸ‡«ğŸ‡· Nantes (NTE)","city":"Nantes","country":"France","lat":47.1537,"lng":-1.6106},
  {"name":"ğŸ‡«ğŸ‡· Toulon (TLN)","city":"Toulon","country":"France","lat":43.1244,"lng":5.928},
  {"name":"ğŸ‡«ğŸ‡· Strasbourg (SXB)","city":"Strasbourg","country":"France","lat":48.5383,"lng":7.6281},

  {"name":"ğŸ‡©ğŸ‡ª Berlin (BER)","city":"Berlin","country":"Germany","lat":52.3667,"lng":13.5033},
  {"name":"ğŸ‡©ğŸ‡ª Munich (MUC)","city":"Munich","country":"Germany","lat":48.3538,"lng":11.7861},
  {"name":"ğŸ‡©ğŸ‡ª Francfort (FRA)","city":"Frankfurt","country":"Germany","lat":50.0333,"lng":8.5706},
  {"name":"ğŸ‡©ğŸ‡ª DÃ¼sseldorf (DUS)","city":"DÃ¼sseldorf","country":"Germany","lat":51.2895,"lng":6.7668},
  {"name":"ğŸ‡©ğŸ‡ª Hambourg (HAM)","city":"Hamburg","country":"Germany","lat":53.6336,"lng":9.9882},
  {"name":"ğŸ‡©ğŸ‡ª Stuttgart (STR)","city":"Stuttgart","country":"Germany","lat":48.6899,"lng":9.2219},
  {"name":"ğŸ‡©ğŸ‡ª Cologne (CGN)","city":"Cologne","country":"Germany","lat":50.8659,"lng":7.1427},
  {"name":"ğŸ‡©ğŸ‡ª Hanovre (HAJ)","city":"Hanover","country":"Germany","lat":52.4611,"lng":9.6856},
  {"name":"ğŸ‡©ğŸ‡ª Nuremberg (NUE)","city":"Nuremberg","country":"Germany","lat":49.4983,"lng":11.0781},

  {"name":"ğŸ‡§ğŸ‡ª Bruxelles (BRU)","city":"Brussels","country":"Belgium","lat":50.9014,"lng":4.4844},
  {"name":"ğŸ‡§ğŸ‡ª Charleroi (CRL)","city":"Charleroi","country":"Belgium","lat":50.4594,"lng":4.4531},

  {"name":"ğŸ‡®ğŸ‡¹ Rome (FCO)","city":"Rome","country":"Italy","lat":41.8003,"lng":12.2389},
  {"name":"ğŸ‡®ğŸ‡¹ Rome Ciampino (CIA)","city":"Rome","country":"Italy","lat":41.7994,"lng":12.5943},
  {"name":"ğŸ‡®ğŸ‡¹ Milan (MXP)","city":"Milan","country":"Italy","lat":45.63,"lng":8.7231},
  {"name":"ğŸ‡®ğŸ‡¹ Venise (VCE)","city":"Venice","country":"Italy","lat":45.5053,"lng":12.3519},
  {"name":"ğŸ‡®ğŸ‡¹ Turin (TRN)","city":"Turin","country":"Italy","lat":45.2006,"lng":7.6494},
  {"name":"ğŸ‡®ğŸ‡¹ Palermo (PMO)","city":"Palermo","country":"Italy","lat":38.1759,"lng":13.0913},
  {"name":"ğŸ‡®ğŸ‡¹ Naples (NAP)","city":"Naples","country":"Italy","lat":40.886,"lng":14.2908},
  {"name":"ğŸ‡®ğŸ‡¹ Bologne (BLQ)","city":"Bologna","country":"Italy","lat":44.5356,"lng":11.2887},
  {"name":"ğŸ‡®ğŸ‡¹ GÃªnes (GOA)","city":"Genoa","country":"Italy","lat":44.4136,"lng":8.8378},

  {"name":"ğŸ‡·ğŸ‡º Moscou (SVO)","city":"Moscow","country":"Russia","lat":55.9726,"lng":37.4146},
  {"name":"ğŸ‡·ğŸ‡º Saint-PÃ©tersbourg (LED)","city":"Saint Petersburg","country":"Russia","lat":59.8003,"lng":30.2625},
  {"name":"ğŸ‡·ğŸ‡º Ekaterinbourg (SVX)","city":"Yekaterinburg","country":"Russia","lat":56.7431,"lng":60.8036},
  {"name":"ğŸ‡·ğŸ‡º Novossibirsk (OVB)","city":"Novosibirsk","country":"Russia","lat":55.0122,"lng":82.6506},

  {"name":"ğŸ‡¨ğŸ‡¦ MontrÃ©al (YUL)","city":"Montreal","country":"Canada","lat":45.4706,"lng":-73.7408},
  {"name":"ğŸ‡¨ğŸ‡¦ Toronto (YYZ)","city":"Toronto","country":"Canada","lat":43.6777,"lng":-79.6248},
  {"name":"ğŸ‡¨ğŸ‡¦ Vancouver (YVR)","city":"Vancouver","country":"Canada","lat":49.1939,"lng":-123.1839},
  {"name":"ğŸ‡¨ğŸ‡¦ Calgary (YYC)","city":"Calgary","country":"Canada","lat":51.1139,"lng":-114.0206},
  {"name":"ğŸ‡¨ğŸ‡¦ Ottawa (YOW)","city":"Ottawa","country":"Canada","lat":45.3225,"lng":-75.6692},
  {"name":"ğŸ‡¨ğŸ‡¦ Edmonton (YEG)","city":"Edmonton","country":"Canada","lat":53.3097,"lng":-113.5806},
  {"name":"ğŸ‡¨ğŸ‡¦ QuÃ©bec (YQB)","city":"Quebec","country":"Canada","lat":46.7919,"lng":-71.3939},



  
  {"name":"ğŸ‡¨ğŸ‡® Abidjan (ABJ)","city":"Abidjan","country":"CÃ´te d'Ivoire","lat":5.2611,"lng":-3.9261},
  {"name":"ğŸ‡¬ğŸ‡­ Accra (ACC)","city":"Accra","country":"Ghana","lat":5.6052,"lng":-0.1668},
  {"name":"ğŸ‡¸ğŸ‡³ Dakar (DSS)","city":"Dakar","country":"Senegal","lat":14.7396,"lng":-17.4903},
  {"name":"ğŸ‡¹ğŸ‡¬ LomÃ© (LFW)","city":"LomÃ©","country":"Togo","lat":6.1656,"lng":1.2544},
  {"name":"ğŸ‡§ğŸ‡¯ Cotonou (COO)","city":"Cotonou","country":"Benin","lat":6.357,"lng":2.3844},
  {"name":"ğŸ‡¬ğŸ‡² Banjul (BJL)","city":"Banjul","country":"Gambia","lat":13.3384,"lng":-16.6528},
  {"name":"ğŸ‡¬ğŸ‡³ Conakry (CKY)","city":"Conakry","country":"Guinea","lat":9.5761,"lng":-13.6231},
  {"name":"ğŸ‡³ğŸ‡¬ Abuja (ABV)","city":"Abuja","country":"Nigeria","lat":9.0063,"lng":7.2631},
  {"name":"ğŸ‡³ğŸ‡¬ Lagos (LOS)","city":"Lagos","country":"Nigeria","lat":6.577,"lng":3.3212},
  {"name":"ğŸ‡¨ğŸ‡² YaoundÃ© (NSI)","city":"YaoundÃ©","country":"Cameroon","lat":3.72,"lng":11.55},
  {"name":"ğŸ‡¨ğŸ‡² Douala (DLA)","city":"Douala","country":"Cameroon","lat":4.0064,"lng":9.7191},
  {"name":"ğŸ‡¨ğŸ‡© Kinshasa (FIH)","city":"Kinshasa","country":"DR Congo","lat":-4.3856,"lng":15.4444},
  {"name":"ğŸ‡¨ğŸ‡¬ Brazzaville (BZV)","city":"Brazzaville","country":"Congo","lat":-4.2514,"lng":15.2531},
  {"name":"ğŸ‡°ğŸ‡ª Nairobi (NBO)","city":"Nairobi","country":"Kenya","lat":-1.3192,"lng":36.9275},
  {"name":"ğŸ‡ªğŸ‡¹ Addis-Abeba (ADD)","city":"Addis Ababa","country":"Ethiopia","lat":8.9779,"lng":38.8},
  {"name":"ğŸ‡²ğŸ‡¦ Casablanca (CMN)","city":"Casablanca","country":"Morocco","lat":33.367,"lng":-7.5898},
  {"name":"ğŸ‡¹ğŸ‡³ Tunis (TUN)","city":"Tunis","country":"Tunisia","lat":36.851,"lng":10.227},
  {"name":"ğŸ‡©ğŸ‡¿ Alger (ALG)","city":"Algiers","country":"Algeria","lat":36.691,"lng":3.215},
  {"name":"ğŸ‡¬ğŸ‡¦ Libreville (LBV)","city":"Libreville","country":"Gabon","lat":0.458,"lng":9.412},

  {"name":"ğŸ‡¨ğŸ‡¬ Pointe-Noire (PNR)","city":"Pointe-Noire","country":"Congo","lat":-4.816,"lng":11.886},
  {"name":"ğŸ‡¨ğŸ‡© Lubumbashi (FBM)","city":"Lubumbashi","country":"DR Congo","lat":-11.591,"lng":27.48},
  {"name":"ğŸ‡¨ğŸ‡« Bangui (BGF)","city":"Bangui","country":"Central African Republic","lat":4.398,"lng":18.518},
  {"name":"ğŸ‡¬ğŸ‡¦ Port-Gentil (POG)","city":"Port-Gentil","country":"Gabon","lat":-0.711,"lng":8.754},

  {"name":"ğŸ‡²ğŸ‡± Bamako (BKO)","city":"Bamako","country":"Mali","lat":12.533,"lng":-7.948},
  {"name":"ğŸ‡§ğŸ‡« Ouagadougou (OUA)","city":"Ouagadougou","country":"Burkina Faso","lat":12.364,"lng":-1.512},
  {"name":"ğŸ‡³ğŸ‡ª Niamey (NIM)","city":"Niamey","country":"Niger","lat":13.481,"lng":2.183},
  {"name":"ğŸ‡§ğŸ‡¯ Porto-Novo","city":"Porto-Novo","country":"Benin","lat":6.496,"lng":2.603},

  {"name":"ğŸ‡±ğŸ‡º Luxembourg (LUX)","city":"Luxembourg","country":"Luxembourg","lat":49.623,"lng":6.204},
  {"name":"ğŸ‡ªğŸ‡¬ Le Caire (CAI)","city":"Cairo","country":"Egypt","lat":30.121,"lng":31.405},
  {"name":"ğŸ‡°ğŸ‡ª Mombasa (MBA)","city":"Mombasa","country":"Kenya","lat":-4.034,"lng":39.594},
  {"name":"ğŸ‡¹ğŸ‡¿ Dar es Salaam (DAR)","city":"Dar es Salaam","country":"Tanzania","lat":-6.877,"lng":39.203},
  {"name":"ğŸ‡¿ğŸ‡¦ Johannesburg (JNB)","city":"Johannesburg","country":"South Africa","lat":-26.133,"lng":28.242},
  {"name":"ğŸ‡¿ğŸ‡¦ Cape Town (CPT)","city":"Cape Town","country":"South Africa","lat":-33.968,"lng":18.597},
  {"name":"ğŸ‡³ğŸ‡¬ Kano (KAN)","city":"Kano","country":"Nigeria","lat":12.047,"lng":8.524},
  {"name":"ğŸ‡²ğŸ‡· Nouakchott (NKC)","city":"Nouakchott","country":"Mauritania","lat":18.085,"lng":-15.978},
  {"name":"ğŸ‡¸ğŸ‡© Khartoum (KRT)","city":"Khartoum","country":"Sudan","lat":15.589,"lng":32.553},
  {"name":"ğŸ‡ºğŸ‡¬ Entebbe (EBB)","city":"Entebbe","country":"Uganda","lat":0.042,"lng":32.443},
  {"name":"ğŸ‡²ğŸ‡¦ Marrakech (RAK)","city":"Marrakech","country":"Morocco","lat":31.607,"lng":-8.036},
  {"name":"ğŸ‡¸ğŸ‡´ Mogadiscio (MGQ)","city":"Mogadishu","country":"Somalia","lat":2.007,"lng":45.345},
  {"name":"ğŸ‡±ğŸ‡¾ Tripoli (TIP)","city":"Tripoli","country":"Libya","lat":32.663,"lng":13.159},




  
  {"name":"ğŸ‡ºğŸ‡¬ Entebbe (EBB)","city":"Entebbe","country":"Uganda","lat":0.042,"lng":32.443},
  {"name":"ğŸ‡·ğŸ‡¼ Kigali (KGL)","city":"Kigali","country":"Rwanda","lat":-1.968,"lng":30.139},
  {"name":"ğŸ‡¹ğŸ‡¿ Dar es Salaam (DAR)","city":"Dar es Salaam","country":"Tanzania","lat":-6.877,"lng":39.203},
  {"name":"ğŸ‡¹ğŸ‡¿ Zanzibar (ZNZ)","city":"Zanzibar","country":"Tanzania","lat":-6.222,"lng":39.224},
  {"name":"ğŸ‡°ğŸ‡ª Mombasa (MBA)","city":"Mombasa","country":"Kenya","lat":-4.034,"lng":39.594},
  {"name":"ğŸ‡¸ğŸ‡© Khartoum (KRT)","city":"Khartoum","country":"Sudan","lat":15.589,"lng":32.553},
  {"name":"ğŸ‡¸ğŸ‡´ Mogadiscio (MGQ)","city":"Mogadishu","country":"Somalia","lat":2.007,"lng":45.345},

  {"name":"ğŸ‡¸ğŸ‡± Freetown Lungi (FNA)","city":"Freetown","country":"Sierra Leone","lat":8.616,"lng":-13.195},
  {"name":"ğŸ‡±ğŸ‡· Monrovia Roberts (ROB)","city":"Monrovia","country":"Liberia","lat":6.233,"lng":-10.362},
  {"name":"ğŸ‡¸ğŸ‡³ Ziguinchor (ZIG)","city":"Ziguinchor","country":"Senegal","lat":12.578,"lng":-16.269},

  {"name":"ğŸ‡¿ğŸ‡¦ Cape Town (CPT)","city":"Cape Town","country":"South Africa","lat":-33.968,"lng":18.597},
  {"name":"ğŸ‡¿ğŸ‡¼ Harare (HRE)","city":"Harare","country":"Zimbabwe","lat":-17.931,"lng":31.092},
  {"name":"ğŸ‡²ğŸ‡¼ Lilongwe (LLW)","city":"Lilongwe","country":"Malawi","lat":-13.789,"lng":33.781},
  {"name":"ğŸ‡¿ğŸ‡² Lusaka (LUN)","city":"Lusaka","country":"Zambia","lat":-15.330,"lng":28.452},
  {"name":"ğŸ‡§ğŸ‡¼ Gaborone (GBE)","city":"Gaborone","country":"Botswana","lat":-24.555,"lng":25.918},
  {"name":"ğŸ‡³ğŸ‡¦ Windhoek (WDH)","city":"Windhoek","country":"Namibia","lat":-22.479,"lng":17.464},
  {"name":"ğŸ‡¦ğŸ‡´ Luanda (LAD)","city":"Luanda","country":"Angola","lat":-8.858,"lng":13.231},

  {"name":"ğŸ‡¸ğŸ‡³ Ziguinchor (ZIG)","city":"Ziguinchor","country":"Senegal","lat":12.578,"lng":-16.269},
  {"name":"ğŸ‡¬ğŸ‡­ Kumasi (KMS)","city":"Kumasi","country":"Ghana","lat":6.714,"lng":-1.590},

  {"name":"ğŸ‡¨ğŸ‡³ PÃ©kin (PEK)","city":"Beijing","country":"China","lat":40.080,"lng":116.584},
  {"name":"ğŸ‡¨ğŸ‡³ Shanghai (PVG)","city":"Shanghai","country":"China","lat":31.144,"lng":121.808},

  {"name":"ğŸ‡¯ğŸ‡µ Tokyo Narita (NRT)","city":"Tokyo","country":"Japan","lat":35.764,"lng":140.386},
  {"name":"ğŸ‡¯ğŸ‡µ Tokyo Haneda (HND)","city":"Tokyo","country":"Japan","lat":35.549,"lng":139.779},

  {"name":"ğŸ‡°ğŸ‡· SÃ©oul Incheon (ICN)","city":"Seoul","country":"South Korea","lat":37.460,"lng":126.440},

  {"name":"ğŸ‡®ğŸ‡³ Delhi (DEL)","city":"Delhi","country":"India","lat":28.556,"lng":77.100},
  {"name":"ğŸ‡®ğŸ‡³ Mumbai (BOM)","city":"Mumbai","country":"India","lat":19.089,"lng":72.865},

  {"name":"ğŸ‡¸ğŸ‡¬ Singapour Changi (SIN)","city":"Singapore","country":"Singapore","lat":1.360,"lng":103.991},

  {"name":"ğŸ‡¹ğŸ‡­ Bangkok Suvarnabhumi (BKK)","city":"Bangkok","country":"Thailand","lat":13.689,"lng":100.747},

  {"name":"ğŸ‡²ğŸ‡¾ Kuala Lumpur (KUL)","city":"Kuala Lumpur","country":"Malaysia","lat":2.745,"lng":101.709},

  {"name":"ğŸ‡µğŸ‡­ Manille (MNL)","city":"Manila","country":"Philippines","lat":14.505,"lng":121.019},

  {"name":"ğŸ‡®ğŸ‡© Jakarta Soekarno (CGK)","city":"Jakarta","country":"Indonesia","lat":-6.125,"lng":106.655},

  {"name":"ğŸ‡¦ğŸ‡ª DubaÃ¯ (DXB)","city":"Dubai","country":"UAE","lat":25.252,"lng":55.364},

  {"name":"ğŸ‡®ğŸ‡± Tel Aviv (TLV)","city":"Tel Aviv","country":"Israel","lat":32.011,"lng":34.886},

  {"name":"ğŸ‡¸ğŸ‡¦ Riyad (RUH)","city":"Riyadh","country":"Saudi Arabia","lat":24.957,"lng":46.698},

  {"name":"ğŸ‡¬ğŸ‡§ Londres Heathrow (LHR)","city":"London","country":"UK","lat":51.4775,"lng":-0.4614},
  {"name":"ğŸ‡¬ğŸ‡§ Londres Gatwick (LGW)","city":"London","country":"UK","lat":51.148,"lng":-0.190},

  {"name":"ğŸ‡¬ğŸ‡§ Manchester (MAN)","city":"Manchester","country":"UK","lat":53.365,"lng":-2.272},
  {"name":"ğŸ‡¬ğŸ‡§ Ã‰dimbourg (EDI)","city":"Edinburgh","country":"UK","lat":55.95,"lng":-3.372},
  {"name":"ğŸ‡®ğŸ‡ª Dublin (DUB)","city":"Dublin","country":"Ireland","lat":53.421,"lng":-6.270},





  
  {"name":"ğŸ‡³ğŸ‡± Amsterdam (AMS)","city":"Amsterdam","country":"Netherlands","lat":52.310,"lng":4.768},
  {"name":"ğŸ‡§ğŸ‡ª Anvers (ANR)","city":"Antwerp","country":"Belgium","lat":51.189,"lng":4.460},
  {"name":"ğŸ‡ªğŸ‡¸ Madrid (MAD)","city":"Madrid","country":"Spain","lat":40.471,"lng":-3.562},
  {"name":"ğŸ‡ªğŸ‡¸ Barcelone (BCN)","city":"Barcelona","country":"Spain","lat":41.297,"lng":2.078},
  {"name":"ğŸ‡µğŸ‡¹ Lisbonne (LIS)","city":"Lisbon","country":"Portugal","lat":38.781,"lng":-9.135},
  {"name":"ğŸ‡µğŸ‡¹ Porto (OPO)","city":"Porto","country":"Portugal","lat":41.248,"lng":-8.681},
  {"name":"ğŸ‡©ğŸ‡° Copenhague (CPH)","city":"Copenhagen","country":"Denmark","lat":55.617,"lng":12.655},
  {"name":"ğŸ‡¸ğŸ‡ª Stockholm (ARN)","city":"Stockholm","country":"Sweden","lat":59.651,"lng":17.918},
  {"name":"ğŸ‡«ğŸ‡® Helsinki (HEL)","city":"Helsinki","country":"Finland","lat":60.317,"lng":24.963},
  {"name":"ğŸ‡³ğŸ‡´ Oslo (OSL)","city":"Oslo","country":"Norway","lat":60.193,"lng":11.100},
  {"name":"ğŸ‡¨ğŸ‡­ Zurich (ZRH)","city":"Zurich","country":"Switzerland","lat":47.464,"lng":8.549},
  {"name":"ğŸ‡¨ğŸ‡­ GenÃ¨ve (GVA)","city":"Geneva","country":"Switzerland","lat":46.236,"lng":6.109},
  {"name":"ğŸ‡¦ğŸ‡¹ Vienne (VIE)","city":"Vienna","country":"Austria","lat":48.110,"lng":16.569},
  {"name":"ğŸ‡µğŸ‡± Varsovie (WAW)","city":"Warsaw","country":"Poland","lat":52.165,"lng":20.967},
  {"name":"ğŸ‡¨ğŸ‡¿ Prague (PRG)","city":"Prague","country":"Czech Republic","lat":50.100,"lng":14.260},
  {"name":"ğŸ‡­ğŸ‡º Budapest (BUD)","city":"Budapest","country":"Hungary","lat":47.436,"lng":19.255},
  {"name":"ğŸ‡·ğŸ‡´ Bucarest (OTP)","city":"Bucharest","country":"Romania","lat":44.572,"lng":26.102},
  {"name":"ğŸ‡¬ğŸ‡· AthÃ¨nes (ATH)","city":"Athens","country":"Greece","lat":37.936,"lng":23.944},
  {"name":"ğŸ‡¹ğŸ‡· Istanbul (IST)","city":"Istanbul","country":"Turkey","lat":40.976,"lng":28.814},
  {"name":"ğŸ‡·ğŸ‡¸ Belgrade (BEG)","city":"Belgrade","country":"Serbia","lat":44.819,"lng":20.308},
  {"name":"ğŸ‡­ğŸ‡· Zagreb (ZAG)","city":"Zagreb","country":"Croatia","lat":45.737,"lng":16.067},
  {"name":"ğŸ‡¸ğŸ‡® Ljubljana (LJU)","city":"Ljubljana","country":"Slovenia","lat":46.223,"lng":14.457},

  {"name":"ğŸ‡ºğŸ‡¸ New York JFK (JFK)","city":"New York","country":"USA","lat":40.641,"lng":-73.778},
  {"name":"ğŸ‡ºğŸ‡¸ New York Newark (EWR)","city":"Newark","country":"USA","lat":40.689,"lng":-74.174},
  {"name":"ğŸ‡ºğŸ‡¸ Los Angeles (LAX)","city":"Los Angeles","country":"USA","lat":33.942,"lng":-118.408},
  {"name":"ğŸ‡ºğŸ‡¸ San Francisco (SFO)","city":"San Francisco","country":"USA","lat":37.618,"lng":-122.375},
  {"name":"ğŸ‡ºğŸ‡¸ Miami (MIA)","city":"Miami","country":"USA","lat":25.795,"lng":-80.287},
  {"name":"ğŸ‡ºğŸ‡¸ Chicago O'Hare (ORD)","city":"Chicago","country":"USA","lat":41.974,"lng":-87.907},
  {"name":"ğŸ‡ºğŸ‡¸ Dallas Fort (DFW)","city":"Dallas/Fort Worth","country":"USA","lat":32.899,"lng":-97.040},
  {"name":"ğŸ‡ºğŸ‡¸ Atlanta (ATL)","city":"Atlanta","country":"USA","lat":33.640,"lng":-84.427},
  {"name":"ğŸ‡ºğŸ‡¸ Washington (IAD)","city":"Washington D.C.","country":"USA","lat":38.954,"lng":-77.447},

  {"name":"ğŸ‡²ğŸ‡½ Mexico (MEX)","city":"Mexico City","country":"Mexico","lat":19.436,"lng":-99.072},
  {"name":"ğŸ‡²ğŸ‡½ CancÃºn (CUN)","city":"CancÃºn","country":"Mexico","lat":21.038,"lng":-86.872},

  {"name":"ğŸ‡§ğŸ‡· SÃ£o Paulo (GRU)","city":"SÃ£o Paulo","country":"Brazil","lat":-23.435,"lng":-46.473},
  {"name":"ğŸ‡§ğŸ‡· Rio de Janeiro (GIG)","city":"Rio de Janeiro","country":"Brazil","lat":-22.810,"lng":-43.250},

  {"name":"ğŸ‡¦ğŸ‡· Buenos Aires (EZE)","city":"Buenos Aires","country":"Argentina","lat":-34.822,"lng":-58.535},

  {"name":"ğŸ‡¨ğŸ‡´ BogotÃ¡ (BOG)","city":"BogotÃ¡","country":"Colombia","lat":4.701,"lng":-74.146},
  {"name":"ğŸ‡¨ğŸ‡± Santiago (SCL)","city":"Santiago","country":"Chile","lat":-33.393,"lng":-70.785},
  {"name":"ğŸ‡µğŸ‡ª Lima (LIM)","city":"Lima","country":"Peru","lat":-12.021,"lng":-77.114},
  {"name":"ğŸ‡»ğŸ‡ª Caracas (CCS)","city":"Caracas","country":"Venezuela","lat":10.605,"lng":-66.990},
  {"name":"ğŸ‡ºğŸ‡¾ Montevideo (MVD)","city":"Montevideo","country":"Uruguay","lat":-34.836,"lng":-56.030},

  {"name":"ğŸ‡µğŸ‡¦ Panama City (PTY)","city":"Panama City","country":"Panama","lat":8.973,"lng":-79.555},
  {"name":"ğŸ‡©ğŸ‡´ Santo Domingo (SDQ)","city":"Santo Domingo","country":"Dominican Republic","lat":18.439,"lng":-69.668},
  {"name":"ğŸ‡¨ğŸ‡º La Havane (HAV)","city":"Havana","country":"Cuba","lat":23.074,"lng":-82.378},
  {"name":"ğŸ‡¯ğŸ‡² Kingston (KIN)","city":"Kingston","country":"Jamaica","lat":17.935,"lng":-76.787},
  {"name":"ğŸ‡§ğŸ‡¸ Nassau (NAS)","city":"Nassau","country":"Bahamas","lat":25.077,"lng":-77.355},
  {"name":"ğŸ‡µğŸ‡· San Juan (SJU)","city":"San Juan","country":"Puerto Rico","lat":18.439,"lng":-66.001},
]

